[{ "name": "绛州鼓乐音乐剧《老鼠娶亲》", "location": "中国，中山", "province": "广东省", "theatre": " 中山市文化艺术中心大剧场", "date": "2019.09.18-12.21", "type": "本土原创" },
    { "name": "法国音乐剧《放牛班的春天》中文版", "location": "中国，北京", "province": "北京市", "theatre": " 海淀剧院", "date": "2019.09.27-09.29", "type": "引进原版" },
    { "name": "世界经典原版音乐剧《猫》CATS ", "location": "中国，海口", "province": "海南省", "theatre": " 海南国际会展中心东方环球大剧院", "date": "2019.09.27-10.03", "type": "中文版制作" },
    { "name": "先锋音乐剧《新·石头记》", "location": "中国，成都", "province": "四川省", "theatre": " 东郊记忆-声音剧场", "date": "2019.09.28-周六", "type": "引进原版" },
    { "name": "小柯音乐剧爱情三部曲之《因为爱情2》", "location": "中国，北京", "province": "北京市", "theatre": " 小柯剧场", "date": "2019.10.01-11.03", "type": "本土原创" },
    { "name": "法语音乐剧《摇滚红与黑》", "location": "中国，上海", "province": "上海市", "theatre": " 上汽上海文化广场", "date": "2019.10.03-06", "type": "引进原版" },
    { "name": "音乐剧《拉赫玛尼诺夫》", "location": "中国，青岛", "province": "山东省", "theatre": " 青岛大剧院", "date": "2019.10.03-10.04", "type": "中文版制作" },
    { "name": "音乐剧《故宫里的大怪兽之吻兽使命》", "location": "中国，哈尔滨", "province": "黑龙江省", "theatre": " 哈尔滨大剧院歌剧厅", "date": "2019.10.04-周五", "type": "本土原创" },
    { "name": "TDSM街舞音乐剧场《我係歌手》", "location": "中国，广州", "province": "广东省", "theatre": " 广州大剧院实验剧场", "date": "2019.10.05-10.06", "type": "本土原创" },
    { "name": "音乐剧《贝隆夫人》", "location": "中国，石家庄", "province": "河北省", "theatre": " 石家庄大剧院大剧场", "date": "2019.10.05-10.06", "type": "引进原版" },
    { "name": "2019法语音乐剧《摇滚红与黑》", "location": "中国，上海", "province": "上海市", "theatre": " 上汽上海文化广场", "date": "2019.10.05-10.20", "type": "引进原版" },
    { "name": "音乐剧《我们还能陪妈妈多久》", "location": "中国，太原", "province": "山西省", "theatre": " 星光剧院", "date": "2019.10.05-周六-19:30", "type": "本土原创" },
    { "name": "音乐剧《九九艳阳天》", "location": "中国，南京", "province": "江苏省", "theatre": " 江苏大剧院歌剧厅", "date": "2019.10.05-周六-19:30", "type": "本土原创" },
    { "name": "音乐剧《九九艳阳天》 青春版", "location": "中国，北京", "province": "北京市", "theatre": " 保利剧院", "date": "2019.10.10-10.11", "type": "本土原创" },
    { "name": "原版经典音乐剧《猫》CATS", "location": "中国，广州", "province": "广东省", "theatre": " 广州白云国际会议中心世纪大会堂", "date": "2019.10.11-10.20", "type": "中文版制作" },
    { "name": "音乐剧《我的遗愿清单》天津站", "location": "中国，天津", "province": "天津市", "theatre": " 天津大礼堂大剧场", "date": "2019.10.12-10.13", "type": "中文版制作" },
    { "name": "莫斯科轻歌剧院·音乐剧《安娜·卡列尼娜》", "location": "中国，西安", "province": "陕西省", "theatre": " 别克·陕西大剧院戏剧厅", "date": "2019.10.13-14:30", "type": "引进原版" },
    { "name": "世界经典音乐剧《妈妈咪呀！》中文版", "location": "中国，苏州", "province": "江苏省", "theatre": " 苏州文化艺术中心大剧院", "date": "2019.10.15-10.20", "type": "中文版制作" },
    { "name": "外百老汇“怦然心动”恋爱音乐剧《长腿叔叔》中文驻场版", "location": "中国，上海", "province": "上海市", "theatre": " 橙剧场·可当代艺术中心", "date": "2019.10.17-11.01", "type": "中文版制作" },
    { "name": "音乐剧《拉赫玛尼诺夫》", "location": "中国，西安", "province": "陕西省", "theatre": " 陕西广电大剧院", "date": "2019.10.18-10.19", "type": "中文版制作" },
    { "name": "音乐剧《我的遗愿清单》", "location": "中国，重庆", "province": "重庆市", "theatre": " 重庆大剧院", "date": "2019.10.18-10.19", "type": "中文版制作" },
    { "name": "原装明星版《搭错车》音乐剧", "location": "中国，广州", "province": "广东省", "theatre": " 广州中山纪念堂", "date": "2019.10.18-10.19", "type": "本土原创" },
    { "name": "百老汇经典音乐剧《音乐之声》中文纪念版", "location": "中国，上海", "province": "上海市", "theatre": " 云峰剧院", "date": "2019.10.18-10.27", "type": "中文版制作" },
    { "name": "家庭音乐剧《故宫里的大怪兽之吻兽使命》", "location": "中国，福州", "province": "福建省", "theatre": " 福建大剧院歌剧厅", "date": "2019.10.18-周五-20:00", "type": "本土原创" },
    { "name": "家庭音乐剧《故宫里的大怪兽之吻兽使命》", "location": "中国，南昌", "province": "江西省", "theatre": " 江西艺术中心大剧院", "date": "2019.10.20-周日-19:45", "type": "本土原创" },
    { "name": "音乐剧史诗巨作《贝隆夫人》Evita", "location": "中国，南京", "province": "江苏省", "theatre": " 江苏大剧院歌剧厅", "date": "2019.10.23-10.27", "type": "引进原版" },
    { "name": "大型原创体验式实景音乐剧《丝路恋歌》", "location": "中国，成都", "province": "四川省", "theatre": " 成都市双流体育中心综合比赛馆", "date": "2019.10.24-10.26", "type": "中文版制作" },
    { "name": "法国音乐剧《放牛班的春天》中文版 暖心上演", "location": "中国，广州", "province": "广东省", "theatre": " 广东艺术剧院", "date": "2019.10.24-10.27", "type": "中文版制作" },
    { "name": "音乐剧《摇滚年代》中文版", "location": "中国，上海", "province": "上海市", "theatre": " ET聚场(上海共舞台)", "date": "2019.10.24-10.27", "type": "中文版制作" },
    { "name": "音乐剧《拉赫玛尼诺夫》中文版", "location": "中国，宁波", "province": "浙江省", "theatre": " 宁波文化广场大剧院", "date": "2019.10.25-10.26", "type": "中文版制作" },
    { "name": "音乐剧《我的遗愿清单》", "location": "中国，成都", "province": "四川省", "theatre": " 四川歌舞大剧院", "date": "2019.10.25-10.26", "type": "中文版制作" },
    { "name": "法语音乐剧《摇滚红与黑》", "location": "中国，北京", "province": "北京市", "theatre": " 世纪剧院", "date": "2019.10.25-11.03", "type": "引进原版" },
    { "name": "音乐剧《淮海儿女》", "location": "中国，南京", "province": "江苏省", "theatre": " 江苏荔枝大剧院", "date": "2019.10.25-周五-19:30", "type": "本土原创" },
    { "name": "音乐剧《拉赫玛尼诺夫》中文版", "location": "中国，武汉", "province": "湖北省", "theatre": " 中南剧场大剧场", "date": "2019.10.29-10.30", "type": "中文版制作" },
    { "name": "百老汇音乐剧《摇滚年代》中文版", "location": "中国，上海", "province": "上海市", "theatre": " 人民大舞台", "date": "2019.10.30-11.03", "type": "中文版制作" },
    { "name": "音乐剧《老虎来喝下午茶》", "location": "中国，大连", "province": "辽宁省", "theatre": " 大连人民文化俱乐部", "date": "2019.10.30-周三-19:00", "type": "本土原创" },
    { "name": "音乐剧《白夜行》", "location": "中国，成都", "province": "四川省", "theatre": " 四川大剧院", "date": "2019.10.31-11.02", "type": "本土原创" },
    { "name": "音乐剧《火花》", "location": "中国，太原", "province": "山西省", "theatre": " 太原青年宫演艺中心", "date": "2019.11.01-11.02", "type": "本土原创" },
    { "name": "大型原创音乐剧《西厢》", "location": "中国，北京", "province": "北京市", "theatre": " 天桥艺术中心-大剧场", "date": "2019.11.01-11.02", "type": "本土原创" },
    { "name": "建筑音乐剧场《建筑城市》", "location": "中国，上海", "province": "上海市", "theatre": " 上海大剧院大剧场", "date": "2019.11.01-11.02", "type": "本土原创" },
    { "name": "音乐剧史诗巨作《贝隆夫人》Evita", "location": "中国，苏州", "province": "江苏省", "theatre": " 苏州文化艺术中心", "date": "2019.11.01-11.05", "type": "引进原版" },
    { "name": "音乐剧史诗巨作《贝隆夫人》Evita苏州站", "location": "中国，苏州", "province": "江苏省", "theatre": " 苏州文化艺术中心-大剧院", "date": "2019.11.01-11.05", "type": "引进原版" },
    { "name": "音乐剧《我的遗愿清单》中文版", "location": "中国，武汉", "province": "湖北省", "theatre": " 中南剧场大剧场", "date": "2019.11.02-11.03", "type": "中文版制作" },
    { "name": "伦敦西区原版音乐剧《玛蒂尔达》武汉站", "location": "中国，武汉", "province": "湖北省", "theatre": " 武汉琴台大剧院", "date": "2019.11.02-11.07", "type": "引进原版" },
    { "name": "百老汇经典音乐剧《音乐之声》中文纪念版", "location": "中国，北京", "province": "北京市", "theatre": " 海淀剧院", "date": "2019.11.02-11.24", "type": "中文版制作" },
    { "name": "英国伦敦西区音乐剧《老虎来喝下午茶》", "location": "中国，济南", "province": "山东省", "theatre": " 山东剧院", "date": "2019.11.03-周日", "type": "引进原版" },
    { "name": "Black Mary Poppins 中文版音乐剧《水曜日》", "location": "中国，上海", "province": "上海市", "theatre": " 人民大舞台", "date": "2019.11.06-11.17", "type": "中文版制作" },
    { "name": "法语音乐剧《摇滚红与黑》", "location": "中国，广州", "province": "广东省", "theatre": " 广州大剧院歌剧厅", "date": "2019.11.08-11.09", "type": "引进原版" },
    { "name": "音乐剧《拉赫玛尼诺夫》", "location": "中国，南京", "province": "江苏省", "theatre": " 江苏荔枝大剧院", "date": "2019.11.09-周六", "type": "中文版制作" },
    { "name": "音乐剧 《阿尔兹记忆的爱情》", "location": "中国，常州", "province": "江苏省", "theatre": " 常州大剧院", "date": "2019.11.12-11.13", "type": "本土原创" },
    { "name": "伦敦西区原版音乐剧《玛蒂尔达》 Matilda The Musical", "location": "中国，天津", "province": "天津市", "theatre": " 天津大剧院歌剧厅", "date": "2019.11.12-11.17", "type": "引进原版" },
    { "name": "百老汇原版音乐剧《芝加哥》", "location": "中国，哈尔滨", "province": "黑龙江省", "theatre": " 哈尔滨大剧院歌剧厅", "date": "2019.11.12-11.17", "type": "引进原版" },
    { "name": "托尼奖史诗音乐剧《泰坦尼克号》", "location": "中国，北京", "province": "北京市", "theatre": " 天桥艺术中心-大剧场", "date": "2019.11.12-11.24", "type": "引进原版" },
    { "name": "音乐剧史诗巨制《贝隆夫人》Evita", "location": "中国，杭州", "province": "浙江省", "theatre": " 杭州大剧院(歌剧院)", "date": "2019.11.13-11.17", "type": "引进原版" },
    { "name": "法语原版音乐剧《巴黎圣母院》", "location": "中国，青岛", "province": "山东省", "theatre": " 青岛大剧院", "date": "2019.11.14-11.17", "type": "引进原版" },
    { "name": "法语音乐剧《摇滚红与黑》", "location": "中国，深圳", "province": "广东省", "theatre": " 南山文体中心剧院大剧院", "date": "2019.11.14-11.17", "type": "引进原版" },
    { "name": "华语原创音乐剧《马不停蹄的忧伤》", "location": "中国，上海", "province": "上海市", "theatre": " 上海大剧院别克中剧场", "date": "2019.11.14-11.17", "type": "本土原创" },
    { "name": "音乐剧《阴阳师》", "location": "中国，广州", "province": "广东省", "theatre": " 广州大剧院歌剧厅", "date": "2019.11.15-11.17", "type": "本土原创" },
    { "name": "音乐剧《国王与我》", "location": "中国，西安", "province": "陕西省", "theatre": " 别克·陕西大剧院戏剧厅", "date": "2019.11.17-14:30", "type": "本土原创" },
    { "name": "法语音乐剧里程碑《巴黎圣母院》", "location": "中国，南京", "province": "江苏省", "theatre": " 南京保利大剧院大剧场", "date": "2019.11.21-11.24", "type": "引进原版" },
    { "name": "伦敦西区原版音乐剧《玛蒂尔达》", "location": "中国，北京", "province": "北京市", "theatre": " 保利剧院", "date": "2019.11.21-11.29", "type": "引进原版" },
    { "name": "音乐剧《帅小伙的蔬果店》", "location": "中国，上海", "province": "上海市", "theatre": " 兰心大戏院", "date": "2019.11.21-12.01", "type": "本土原创" },
    { "name": "百老汇原版音乐剧《芝加哥》Chicago", "location": "中国，成都", "province": "四川省", "theatre": " 四川大剧院", "date": "2019.11.22-11.24", "type": "引进原版" },
    { "name": "音乐剧《阴阳师》", "location": "中国，深圳", "province": "广东省", "theatre": " 深圳保利剧院", "date": "2019.11.22-11.24", "type": "本土原创" },
    { "name": "原版音乐剧史诗巨制《艾薇塔》Evita", "location": "中国，北京", "province": "北京市", "theatre": " 世纪剧院", "date": "2019.11.22-11.28", "type": "中文版制作" },
    { "name": "韩国原创音乐剧《拉赫玛尼诺夫》中文版", "location": "中国，厦门", "province": "福建省", "theatre": " 厦门沧江剧院", "date": "2019.11.23-周六-19:30", "type": "中文版制作" },
    { "name": "音乐剧《泰坦尼克号》", "location": "中国，上海", "province": "上海市", "theatre": " 上汽上海文化广场", "date": "2019.11.27-12.01", "type": "引进原版" },
    { "name": "音乐剧《芝加哥》", "location": "中国，北京", "province": "北京市", "theatre": " 二七剧场", "date": "2019.11.28-12.01", "type": "引进原版" },
    { "name": "法语原版音乐剧《巴黎圣母院》", "location": "中国，珠海", "province": "广东省", "theatre": " 珠海华发中演大剧院 横琴歌剧厅", "date": "2019.11.29-12.01", "type": "引进原版" },
    { "name": "音乐剧《阴阳师》", "location": "中国，合肥", "province": "安徽省", "theatre": " 合肥大剧院", "date": "2019.11.29-12.01", "type": "本土原创" },
    { "name": "音乐剧《我的遗愿清单》海口站", "location": "中国，海口", "province": "海南省", "theatre": " 海南国际会展中心东方环球大剧院", "date": "2019.11.30-周六-20:00", "type": "中文版制作" },
    { "name": "法国原版音乐剧《卖火柴的小女孩》", "location": "中国，北京", "province": "北京市", "theatre": " 北京展览馆剧场", "date": "2019.12.01-周日-19:30", "type": "引进原版" },
    { "name": "法国原版音乐剧《卖火柴的小女孩》", "location": "中国，重庆", "province": "重庆市", "theatre": " 重庆国泰艺术中心剧院", "date": "2019.12.03-12.05", "type": "引进原版" },
    { "name": "摇滚音乐剧《大力水手》", "location": "中国，北京", "province": "北京市", "theatre": " 天桥艺术中心-中剧场", "date": "2019.12.04-12.08", "type": "本土原创" },
    { "name": "音乐剧史诗巨作《贝隆夫人》Evita", "location": "中国，深圳", "province": "广东省", "theatre": " 南山文体中心剧院大剧院", "date": "2019.12.04-12.08", "type": "引进原版" },
    { "name": "法语音乐剧《巴黎圣母院》", "location": "中国，广州", "province": "广东省", "theatre": " 广州大剧院歌剧厅", "date": "2019.12.05-12.08", "type": "引进原版" },
    { "name": "音乐剧《芝加哥》", "location": "中国，上海", "province": "上海市", "theatre": " 美琪大戏院", "date": "2019.12.05-12.15", "type": "引进原版" },
    { "name": "音乐剧《我的遗愿清单》", "location": "中国，河源", "province": "广东省", "theatre": " 桃花水母大剧院", "date": "2019.12.05-周四-20:00", "type": "中文版制作" },
    { "name": "伦敦西区原版音乐剧《玛蒂尔达》", "location": "中国，上海", "province": "上海市", "theatre": " 上汽上海文化广场", "date": "2019.12.06-12.19", "type": "引进原版" },
    { "name": "音乐剧《马不停蹄的忧伤》", "location": "中国，无锡", "province": "江苏省", "theatre": " 无锡大剧院", "date": "2019.12.07-12.08", "type": "本土原创" },
    { "name": "百老汇摇滚音乐剧《吉屋出租RENT》中文版", "location": "中国，广州", "province": "广东省", "theatre": " 广州少年宫蓓蕾剧院", "date": "2019.12.07-周六", "type": "中文版制作" },
    { "name": "科幻巨作《献给阿尔吉侬的花束》改编音乐剧中文版", "location": "中国，上海", "province": "上海市", "theatre": " 人民大舞台", "date": "2019.12.11-12.22", "type": "中文版制作" },
    { "name": "英文原版音乐剧《泰坦尼克号》", "location": "中国，广州", "province": "广东省", "theatre": " 广州大剧院歌剧厅", "date": "2019.12.12-12.14", "type": "引进原版" },
    { "name": "百老汇摇滚音乐剧《吉屋出租RENT》中文版", "location": "中国，深圳", "province": "广东省", "theatre": " 南山文体中心剧院大剧院", "date": "2019.12.13-12.14", "type": "中文版制作" },
    { "name": "音乐剧《阴阳师》", "location": "中国，上海", "province": "上海市", "theatre": " 东方艺术中心-歌剧厅", "date": "2019.12.13-12.15", "type": "本土原创" },
    { "name": "法语原版音乐剧《巴黎圣母院》", "location": "中国，成都", "province": "四川省", "theatre": " 四川大剧院", "date": "2019.12.13-12.15", "type": "引进原版" },
    { "name": "音乐剧史诗巨作《贝隆夫人》Evita", "location": "中国，广州", "province": "广东省", "theatre": " 广州白云国际会议中心世纪大会堂", "date": "2019.12.13-12.18", "type": "引进原版" },
    { "name": "音乐剧《我的遗愿清单》", "location": "中国，佛山", "province": "广东省", "theatre": " 佛山大剧院", "date": "2019.12.14-12.15", "type": "中文版制作" },
    { "name": "《白夜行》音乐剧", "location": "中国，深圳", "province": "广东省", "theatre": " 深圳保利剧院", "date": "2019.12.14-12.15", "type": "本土原创" },
    { "name": "百老汇经典音乐剧《音乐之声》中文版", "location": "中国，绍兴", "province": "浙江省", "theatre": " 绍兴大剧院", "date": "2019.12.14-周六-19:30", "type": "中文版制作" },
    { "name": "陈少琪原创音乐剧《爱在星光里》", "location": "中国，厦门", "province": "福建省", "theatre": " 厦门嘉庚剧院大剧场", "date": "2019.12.14-周六-20:00", "type": "本土原创" },
    { "name": "音乐剧《我的遗愿清单》中文版", "location": "中国，广州", "province": "广东省", "theatre": " 广东艺术剧院", "date": "2019.12.17-12.19", "type": "中文版制作" },
    { "name": "陈少琪原创音乐剧《爱在星光里》", "location": "中国，河源", "province": "广东省", "theatre": " 桃花水母大剧院", "date": "2019.12.18-周三-20:00", "type": "本土原创" },
    { "name": "法语原版音乐剧《巴黎圣母院》", "location": "中国，西安", "province": "陕西省", "theatre": " 别克·陕西大剧院歌剧厅", "date": "2019.12.19-12.22", "type": "引进原版" },
    { "name": "音乐剧《芝加哥》 CHICAGO THE MUSICAL", "location": "中国，苏州", "province": "江苏省", "theatre": " 苏州文化艺术中心大剧院", "date": "2019.12.19-12.22", "type": "引进原版" },
    { "name": "音乐剧《阴阳师》", "location": "中国，济南", "province": "山东省", "theatre": " 山东省会大剧院歌剧厅", "date": "2019.12.20-12.22", "type": "本土原创" },
    { "name": "音乐剧《拉赫玛尼诺夫》中文版", "location": "中国，广州", "province": "广东省", "theatre": " 广东艺术剧院", "date": "2019.12.21-12.22", "type": "中文版制作" },
    { "name": "音乐剧《爱在星光里》", "location": "中国，珠海", "province": "广东省", "theatre": " 珠海大剧院歌剧厅", "date": "2019.12.21-12.22", "type": "本土原创" },
    { "name": "绛州鼓乐音乐剧《老鼠娶亲》", "location": "中国，中山", "province": "广东省", "theatre": " 中山市文化艺术中心大剧场", "date": "2019.12.21-周六-20:00", "type": "本土原创" },
    { "name": "原版童话音乐剧《卖火柴的小女孩》", "location": "中国，无锡", "province": "江苏省", "theatre": " 无锡大剧院", "date": "2019.12.25-周三-19:30", "type": "本土原创" },
    { "name": "陈少琪原创音乐剧《爱在星光里》", "location": "中国，福州", "province": "福建省", "theatre": " 福建会堂", "date": "2019.12.25-周三-19:30", "type": "本土原创" },
    { "name": "百老汇原版音乐剧《芝加哥》Chicago ", "location": "中国，南京", "province": "江苏省", "theatre": " 江苏大剧院歌剧厅", "date": "2019.12.26-12.28", "type": "引进原版" },
    { "name": "法语音乐剧《巴黎圣母院》武汉站", "location": "中国，武汉", "province": "湖北省", "theatre": " 武汉琴台大剧院", "date": "2019.12.26-12.29", "type": "引进原版" },
    { "name": "音乐剧《长腿叔叔》中文版", "location": "中国，杭州", "province": "浙江省", "theatre": " 杭州剧院", "date": "2019.12.27-12.28", "type": "中文版制作" },
    { "name": "音乐剧《阴阳师》", "location": "中国，北京", "province": "北京市", "theatre": " 天桥艺术中心-大剧场", "date": "2019.12.27-12.29", "type": "本土原创" },
    { "name": "音乐剧《拉赫玛尼诺夫》", "location": "中国，温州", "province": "浙江省", "theatre": " 温州大剧院", "date": "2019.12.30-周一-19:30", "type": "中文版制作" },
    { "name": "音乐剧《DREAMGIRLS追梦女郎》", "location": "中国，上海", "province": "上海市", "theatre": " 上汽上海文化广场", "date": "2020.01.02-01.10", "type": "本土原创" },
    { "name": "音乐剧《芝加哥》", "location": "中国，深圳", "province": "广东省", "theatre": " 南山文体中心剧院大剧院", "date": "2020.01.02-01.10", "type": "引进原版" },
    { "name": "法语原版音乐剧《巴黎圣母院》", "location": "中国，郑州", "province": "河南省", "theatre": " 河南省人民会堂", "date": "2020.01.03-01.05", "type": "引进原版" },
    { "name": "伦敦西区原版音乐剧《玛蒂尔达》", "location": "中国，西安", "province": "陕西省", "theatre": " 别克·陕西大剧院歌剧厅", "date": "2020.01.04-01.11", "type": "引进原版" },
    { "name": "音乐剧《拉赫玛尼诺夫》", "location": "中国，杭州", "province": "浙江省", "theatre": " 杭州剧院", "date": "2020.01.04-周六-19:30", "type": "中文版制作" },
    { "name": "孟京辉戏剧作品 摇滚音乐剧《空中花园谋杀案》", "location": "中国，北京", "province": "北京市", "theatre": " 蜂巢剧场", "date": "2020.01.07-01.19", "type": "本土原创" },
    { "name": "百老汇摇滚音乐剧《吉屋出租RENT》中文版", "location": "中国，北京", "province": "北京市", "theatre": " 中国人民大学如论讲堂", "date": "2020.01.09-01.10", "type": "中文版制作" },
    { "name": "法语音乐剧《巴黎圣母院》", "location": "中国，深圳", "province": "广东省", "theatre": " 深圳保利剧院", "date": "2020.01.10-01.12", "type": "引进原版" },
    { "name": "伦敦西区原版音乐剧《Matilda the Musical玛蒂尔达》", "location": "中国，南京", "province": "江苏省", "theatre": " 南京保利大剧院大剧场", "date": "2020.01.16-01.22", "type": "引进原版" },
    { "name": "法语原版音乐剧《巴黎圣母院》", "location": "中国，上海", "province": "上海市", "theatre": " 上汽上海文化广场", "date": "2020.01.16-01.23", "type": "引进原版" },
    { "name": "音乐剧《涩女郎》", "location": "中国，上海", "province": "上海市", "theatre": " 虹桥艺术中心", "date": "2020.02.13-02.16", "type": "本土原创" }
]